{"meta":{"code":200},"notifications":[{"type":"notificationTray","item":{"unreadCount":1}}],"response":{"venues":[{"id":"4a43bcb7f964a520bba61fe3","name":"Brooklyn Bridge","contact":{"twitter":"nyc_dot"},"location":{"address":"Brooklyn Bridge","lat":40.705953265881305,"lng":-73.99656772613525,"distance":723,"postalCode":"10038","city":"New York","state":"NY","country":"United States","cc":"US"},"canonicalUrl":"https:\/\/foursquare.com\/v\/brooklyn-bridge\/4a43bcb7f964a520bba61fe3","categories":[{"id":"4bf58dd8d48988d1df941735","name":"Pont","pluralName":"Ponts","shortName":"Pont","icon":{"prefix":"https:\/\/foursquare.com\/img\/categories_v2\/parks_outdoors\/bridge_","suffix":".png"},"primary":true}],"verified":true,"stats":{"checkinsCount":89243,"usersCount":49471,"tipCount":377},"url":"http:\/\/nyc.gov\/dot","likes":{"count":0,"groups":[]},"hereNow":{"count":14,"groups":[{"type":"others","name":"Autres personnes ici","count":14,"items":[]}]}},{"id":"4eeb4c51775b1d4812e0261c","name":"Shake Shack","contact":{"phone":"7183077590","formattedPhone":"(718) 307-7590","twitter":"shakeshack"},"location":{"address":"409 Fulton St.","crossStreet":"at Boerum Pl.","lat":40.692110700192785,"lng":-73.98889981642176,"distance":1284,"postalCode":"11201","city":"Brooklyn","state":"NY","country":"United States","cc":"US"},"canonicalUrl":"https:\/\/foursquare.com\/v\/shake-shack\/4eeb4c51775b1d4812e0261c","categories":[{"id":"4bf58dd8d48988d16c941735","name":"Lieu servant des hamburgers","pluralName":"Lieux servant des hamburgers","shortName":"Hamburgers","icon":{"prefix":"https:\/\/foursquare.com\/img\/categories_v2\/food\/burger_","suffix":".png"},"primary":true}],"verified":true,"stats":{"checkinsCount":13373,"usersCount":7390,"tipCount":83},"url":"http:\/\/shakeshack.com","likes":{"count":0,"groups":[]},"menu":{"type":"foodAndBeverage","url":"https:\/\/foursquare.com\/v\/shake-shack\/4eeb4c51775b1d4812e0261c\/menu","mobileUrl":"https:\/\/foursquare.com\/v\/4eeb4c51775b1d4812e0261c\/device_menu"},"hereNow":{"count":14,"groups":[{"type":"others","name":"Autres personnes ici","count":14,"items":[]}]}},{"id":"4b6b5abff964a520fb022ce3","name":"National September 11 Memorial & Museum","contact":{"phone":"2123128800","formattedPhone":"(212) 312-8800","twitter":"sept11memorial"},"location":{"address":"1 Albany St","crossStreet":"btwn West & Greenwich St","lat":40.7114673282201,"lng":-74.01328325271606,"distance":1698,"postalCode":"10006","city":"New York","state":"NY","country":"United States","cc":"US"},"canonicalUrl":"https:\/\/foursquare.com\/v\/national-september-11-memorial--museum\/4b6b5abff964a520fb022ce3","categories":[{"id":"4deefb944765f83613cdba6e","name":"Site historique","pluralName":"Sites historiques","shortName":"Site historique","icon":{"prefix":"https:\/\/foursquare.com\/img\/categories_v2\/arts_entertainment\/historicsite_","suffix":".png"},"primary":true}],"verified":true,"stats":{"checkinsCount":61572,"usersCount":46340,"tipCount":275},"url":"http:\/\/www.911memorial.org","likes":{"count":0,"groups":[]},"hereNow":{"count":10,"groups":[{"type":"others","name":"Autres personnes ici","count":10,"items":[]}]}},{"id":"3fd66200f964a520d5e31ee3","name":"Jing Fong Restaurant 金豐大酒樓","contact":{"phone":"2129645256","formattedPhone":"(212) 964-5256"},"location":{"address":"20 Elizabeth St.","crossStreet":"btwn Bayard & Canal St.","lat":40.71578596909744,"lng":-73.99703176412758,"distance":1775,"postalCode":"10013","city":"New York","state":"NY","country":"United States","cc":"US"},"canonicalUrl":"https:\/\/foursquare.com\/v\/jing-fong-restaurant-%E9%87%91%E8%B1%90%E5%A4%A7%E9%85%92%E6%A8%93\/3fd66200f964a520d5e31ee3","categories":[{"id":"4bf58dd8d48988d1f5931735","name":"Restaurant Dim Sum","pluralName":"Restaurants Dim Sum","shortName":"Dim Sum","icon":{"prefix":"https:\/\/foursquare.com\/img\/categories_v2\/food\/dimsum_","suffix":".png"},"primary":true}],"verified":false,"stats":{"checkinsCount":11622,"usersCount":8068,"tipCount":108},"url":"http:\/\/www.jingfongny.com","likes":{"count":0,"groups":[]},"menu":{"type":"foodAndBeverage","url":"https:\/\/foursquare.com\/v\/jing-fong-restaurant-%E9%87%91%E8%B1%90%E5%A4%A7%E9%85%92%E6%A8%93\/3fd66200f964a520d5e31ee3\/menu","mobileUrl":"https:\/\/foursquare.com\/v\/3fd66200f964a520d5e31ee3\/device_menu"},"hereNow":{"count":10,"groups":[{"type":"others","name":"Autres personnes ici","count":10,"items":[]}]}},{"id":"4165d880f964a5207e1d1fe3","name":"Staten Island Ferry - Whitehall Terminal","contact":{"phone":"7188152628","formattedPhone":"(718) 815-2628","twitter":"nyc_dot"},"location":{"address":"4 South St","crossStreet":"South Ferry","lat":40.70145732419213,"lng":-74.01321428847186,"distance":1126,"postalCode":"10004","city":"New York","state":"NY","country":"United States","cc":"US"},"canonicalUrl":"https:\/\/foursquare.com\/v\/staten-island-ferry--whitehall-terminal\/4165d880f964a5207e1d1fe3","categories":[{"id":"4e74f6cabd41c4836eac4c31","name":"Embarcadère","pluralName":"Embarcadère","shortName":"Embarcadère","icon":{"prefix":"https:\/\/foursquare.com\/img\/categories_v2\/travel\/ferry_pier_","suffix":".png"},"primary":true}],"verified":true,"stats":{"checkinsCount":68315,"usersCount":25892,"tipCount":257},"url":"http:\/\/nyc.gov\/dot","likes":{"count":0,"groups":[]},"hereNow":{"count":9,"groups":[{"type":"others","name":"Autres personnes ici","count":9,"items":[]}]}},{"id":"49c170abf964a520a7551fe3","name":"Trader Joe's","contact":{"phone":"7182468460","formattedPhone":"(718) 246-8460"},"location":{"address":"130 Court Street","crossStreet":"at Atlantic Ave.","lat":40.68973081072573,"lng":-73.9926932379005,"distance":1298,"postalCode":"11201","city":"Brooklyn","state":"NY","country":"United States","cc":"US"},"canonicalUrl":"https:\/\/foursquare.com\/v\/trader-joes\/49c170abf964a520a7551fe3","categories":[{"id":"4bf58dd8d48988d118951735","name":"Épicerie","pluralName":"Épiceries","shortName":"Épicerie","icon":{"prefix":"https:\/\/foursquare.com\/img\/categories_v2\/shops\/food_grocery_","suffix":".png"},"primary":true}],"verified":true,"stats":{"checkinsCount":29255,"usersCount":7891,"tipCount":138},"url":"http:\/\/www.traderjoes.com","likes":{"count":0,"groups":[]},"hereNow":{"count":9,"groups":[{"type":"others","name":"Autres personnes ici","count":9,"items":[]}]}},{"id":"430d0a00f964a5203e271fe3","name":"Brooklyn Bridge Park","contact":{"phone":"2128033822","formattedPhone":"(212) 803-3822","twitter":"bbpconservancy"},"location":{"address":"Main St.","crossStreet":"Plymouth St.","lat":40.701593743002,"lng":-73.99592399597168,"distance":387,"postalCode":"11201","city":"Brooklyn","state":"NY","country":"United States","cc":"US"},"canonicalUrl":"https:\/\/foursquare.com\/v\/brooklyn-bridge-park\/430d0a00f964a5203e271fe3","categories":[{"id":"4bf58dd8d48988d163941735","name":"Parc","pluralName":"Parcs","shortName":"Parc","icon":{"prefix":"https:\/\/foursquare.com\/img\/categories_v2\/parks_outdoors\/park_","suffix":".png"},"primary":true}],"verified":true,"stats":{"checkinsCount":14626,"usersCount":9160,"tipCount":86},"likes":{"count":0,"groups":[]},"hereNow":{"count":8,"groups":[{"type":"others","name":"Autres personnes ici","count":8,"items":[]}]}},{"id":"4a737bf8f964a52091dc1fe3","name":"MTA Subway - Manhattan Bridge (B\/D\/N\/Q)","contact":{"twitter":"nyctsubwayscoop"},"location":{"address":"Manhattan Bridge","crossStreet":"East River","lat":40.708588361482406,"lng":-73.99103164672852,"distance":1219,"postalCode":"11201","city":"New York","state":"NY","country":"United States","cc":"US"},"canonicalUrl":"https:\/\/foursquare.com\/v\/mta-subway--manhattan-bridge-bdnq\/4a737bf8f964a52091dc1fe3","categories":[{"id":"4bf58dd8d48988d1fd931735","name":"Métro","pluralName":"Métros","shortName":"Métro","icon":{"prefix":"https:\/\/foursquare.com\/img\/categories_v2\/travel\/subway_","suffix":".png"},"primary":true}],"verified":false,"stats":{"checkinsCount":120174,"usersCount":8006,"tipCount":136},"url":"http:\/\/www.mta.info","likes":{"count":0,"groups":[]},"hereNow":{"count":8,"groups":[{"type":"others","name":"Autres personnes ici","count":8,"items":[]}]}},{"id":"4a414e48f964a52010a51fe3","name":"Brooklyn Farmacy & Soda Fountain","contact":{"phone":"7185226260","formattedPhone":"(718) 522-6260","twitter":"brooklynfarmacy"},"location":{"address":"513 Henry St.","crossStreet":"at Sackett St.","lat":40.68410746342771,"lng":-73.999344456893,"distance":1770,"postalCode":"10002","city":"New York","state":"NY","country":"United States","cc":"US"},"canonicalUrl":"https:\/\/foursquare.com\/v\/brooklyn-farmacy--soda-fountain\/4a414e48f964a52010a51fe3","categories":[{"id":"4bf58dd8d48988d1c9941735","name":"Marchand de glaces","pluralName":"Marchands de glaces","shortName":"Glace","icon":{"prefix":"https:\/\/foursquare.com\/img\/categories_v2\/food\/icecream_","suffix":".png"},"primary":true}],"verified":false,"stats":{"checkinsCount":4511,"usersCount":2664,"tipCount":61},"url":"http:\/\/brooklynfarmacy.blogspot.com","likes":{"count":0,"groups":[]},"menu":{"type":"foodAndBeverage","url":"https:\/\/foursquare.com\/v\/brooklyn-farmacy--soda-fountain\/4a414e48f964a52010a51fe3\/menu","mobileUrl":"https:\/\/foursquare.com\/v\/4a414e48f964a52010a51fe3\/device_menu"},"hereNow":{"count":8,"groups":[{"type":"others","name":"Autres personnes ici","count":8,"items":[]}]}},{"id":"42daf100f964a52035261fe3","name":"Battery Park","contact":{"phone":"2123443491","formattedPhone":"(212) 344-3491"},"location":{"address":"Battery Pl.","crossStreet":"at State St.","lat":40.703578337307555,"lng":-74.01618003845215,"distance":1422,"postalCode":"10004","city":"New York","state":"NY","country":"United States","cc":"US"},"canonicalUrl":"https:\/\/foursquare.com\/v\/battery-park\/42daf100f964a52035261fe3","categories":[{"id":"4bf58dd8d48988d163941735","name":"Parc","pluralName":"Parcs","shortName":"Parc","icon":{"prefix":"https:\/\/foursquare.com\/img\/categories_v2\/parks_outdoors\/park_","suffix":".png"},"primary":true}],"verified":true,"stats":{"checkinsCount":28817,"usersCount":22306,"tipCount":98},"likes":{"count":0,"groups":[]},"hereNow":{"count":7,"groups":[{"type":"others","name":"Autres personnes ici","count":7,"items":[]}]}},{"id":"4a32c3f9f964a5208c9a1fe3","name":"Manhattan Bridge","contact":{"twitter":"nyc_dot"},"location":{"address":"Manhattan Bridge","lat":40.705888200473375,"lng":-73.9900016784668,"distance":1068,"postalCode":"10002","city":"New York","state":"NY","country":"United States","cc":"US"},"canonicalUrl":"https:\/\/foursquare.com\/v\/manhattan-bridge\/4a32c3f9f964a5208c9a1fe3","categories":[{"id":"4bf58dd8d48988d1df941735","name":"Pont","pluralName":"Ponts","shortName":"Pont","icon":{"prefix":"https:\/\/foursquare.com\/img\/categories_v2\/parks_outdoors\/bridge_","suffix":".png"},"primary":true}],"verified":true,"stats":{"checkinsCount":68651,"usersCount":15998,"tipCount":122},"url":"http:\/\/nyc.gov\/dot","likes":{"count":0,"groups":[]},"hereNow":{"count":7,"groups":[{"type":"others","name":"Autres personnes ici","count":7,"items":[]}]}},{"id":"45e5c256f964a52046431fe3","name":"Mudville Restaurant & Tap House","contact":{"phone":"2129649464","formattedPhone":"(212) 964-9464","twitter":"mudville9beer","facebook":"103961942986990"},"location":{"address":"126 Chambers St.","crossStreet":"btwn Broadway & Church St.","lat":40.715284,"lng":-74.008876,"distance":1858,"postalCode":"10007","city":"New York","state":"NY","country":"United States","cc":"US"},"canonicalUrl":"https:\/\/foursquare.com\/v\/mudville-restaurant--tap-house\/45e5c256f964a52046431fe3","categories":[{"id":"4bf58dd8d48988d14c941735","name":"Lieu servant des ailes de poulet","pluralName":"Lieux servant des ailes de poulet","shortName":"Wings","icon":{"prefix":"https:\/\/foursquare.com\/img\/categories_v2\/food\/wings_","suffix":".png"},"primary":true}],"verified":true,"stats":{"checkinsCount":5383,"usersCount":3251,"tipCount":63},"url":"http:\/\/mudville9.com","likes":{"count":0,"groups":[]},"menu":{"type":"foodAndBeverage","url":"https:\/\/foursquare.com\/v\/mudville-restaurant--tap-house\/45e5c256f964a52046431fe3\/menu","mobileUrl":"https:\/\/foursquare.com\/v\/45e5c256f964a52046431fe3\/device_menu"},"hereNow":{"count":6,"groups":[{"type":"others","name":"Autres personnes ici","count":6,"items":[]}]},"venuePage":{"id":"43156651"}},{"id":"4a7655b0f964a520dce21fe3","name":"Tasty Hand-Pulled Noodles Inc.","contact":{"phone":"2127911817","formattedPhone":"(212) 791-1817"},"location":{"address":"1 Doyers St.","crossStreet":"at Bowery","lat":40.7142079238429,"lng":-73.99784713983536,"distance":1592,"postalCode":"10038","city":"New York","state":"NY","country":"United States","cc":"US"},"canonicalUrl":"https:\/\/foursquare.com\/v\/tasty-handpulled-noodles-inc\/4a7655b0f964a520dce21fe3","categories":[{"id":"4bf58dd8d48988d1d1941735","name":"Restaurant de ramen ou de nouilles chinoises","pluralName":"Restaurant de ramen ou de nouilles chinoises","shortName":"Ramen\/Nouilles","icon":{"prefix":"https:\/\/foursquare.com\/img\/categories_v2\/food\/ramen_","suffix":".png"},"primary":true}],"verified":false,"stats":{"checkinsCount":3903,"usersCount":2351,"tipCount":62},"likes":{"count":0,"groups":[]},"menu":{"type":"foodAndBeverage","url":"https:\/\/foursquare.com\/v\/tasty-handpulled-noodles-inc\/4a7655b0f964a520dce21fe3\/menu","mobileUrl":"https:\/\/foursquare.com\/v\/4a7655b0f964a520dce21fe3\/device_menu"},"hereNow":{"count":6,"groups":[{"type":"others","name":"Autres personnes ici","count":6,"items":[]}]}},{"id":"50ca6337e4b04e1f3135689c","name":"Juliana's Pizza","contact":{"phone":"7185966700","formattedPhone":"(718) 596-6700"},"location":{"address":"19 Old Fulton St","lat":40.70263748367539,"lng":-73.99361145269988,"distance":613,"postalCode":"11201","city":"Brooklyn","state":"NY","country":"United States","cc":"US"},"canonicalUrl":"https:\/\/foursquare.com\/v\/julianas-pizza\/50ca6337e4b04e1f3135689c","categories":[{"id":"4bf58dd8d48988d1ca941735","name":"Pizzeria","pluralName":"Pizzerias","shortName":"Pizza","icon":{"prefix":"https:\/\/foursquare.com\/img\/categories_v2\/food\/pizza_","suffix":".png"},"primary":true}],"verified":false,"stats":{"checkinsCount":580,"usersCount":477,"tipCount":18},"likes":{"count":0,"groups":[]},"hereNow":{"count":6,"groups":[{"type":"others","name":"Autres personnes ici","count":6,"items":[]}]}}]}}